[
  { "name": "Cairo", "country": "Egypt", "region": "Africa", "latitude": 30.06263, "longitude": 31.24967, "timezone": "Africa/Cairo" },
  { "name": "Canberra", "country": "Australia", "region": "Pacific", "latitude": -33.8688, "longitude": 151.2093, "timezone": "Australia/Sydney" },
  { "name": "Istanbul", "country": "Turkey", "region": "Asia", "latitude": 41.0082, "longitude": 28.9784, "timezone": "Europe/Istanbul" },
  { "name": "Mexico City", "country": "Mexico", "region": "North America", "latitude": 19.4326, "longitude": -99.1332, "timezone": "America/Mexico_City" },
  { "name": "Sao Paulo", "country": "Brazil", "region": "South America", "latitude": -23.5505, "longitude": -46.6333, "timezone": "America/Sao_Paulo" },
  { "name": "Tokyo", "country": "Japan", "region": "Asia", "latitude": 35.6895, "longitude": 139.6917, "timezone": "Asia/Tokyo" }
]
